{
"type": "FeatureCollection",
"name": "ok",
"crs": { "type": "name", "properties": { "name": "urn:ogc:def:crs:OGC:1.3:CRS84" } },
"features": [
{ "type": "Feature", "properties": { "id_site": 1, "oeuvres_1910_1919": 0, "oeuvres_1920_1929": 0, "oeuvres_1930_1939": 0, "oeuvres_1940_1949": 0, "oeuvres_1950_1959": 0, "oeuvres_1960_1969": 0, "oeuvres_1970_1979": 0, "oeuvres_1980_1989": 12, "oeuvres_1990_1999": 13, "oeuvres_2000_2009": 18, "oeuvres_2010_2019": 22, "oeuvres_1900_1909": 0, "nom_site": "Forest of Dean Sculpture Trust" }, "geometry": { "type": "Point", "coordinates": [ -2.56433, 51.79462 ] } },
{ "type": "Feature", "properties": { "id_site": 5, "oeuvres_1910_1919": 0, "oeuvres_1920_1929": 0, "oeuvres_1930_1939": 0, "oeuvres_1940_1949": 1, "oeuvres_1950_1959": 1, "oeuvres_1960_1969": 1, "oeuvres_1970_1979": 1, "oeuvres_1980_1989": 1, "oeuvres_1990_1999": 23, "oeuvres_2000_2009": 23, "oeuvres_2010_2019": 23, "oeuvres_1900_1909": 0, "nom_site": "Krakamarken" }, "geometry": { "type": "Point", "coordinates": [ 10.1083, 56.4054 ] } },
{ "type": "Feature", "properties": { "id_site": 6, "oeuvres_1910_1919": 0, "oeuvres_1920_1929": 0, "oeuvres_1930_1939": 0, "oeuvres_1940_1949": 0, "oeuvres_1950_1959": 0, "oeuvres_1960_1969": 0, "oeuvres_1970_1979": 0, "oeuvres_1980_1989": 0, "oeuvres_1990_1999": 2, "oeuvres_2000_2009": 19, "oeuvres_2010_2019": 65, "oeuvres_1900_1909": 0, "nom_site": "ArteSella" }, "geometry": { "type": "Point", "coordinates": [ 11.37922, 46.00619 ] } },
{ "type": "Feature", "properties": { "id_site": 9, "oeuvres_1910_1919": 0, "oeuvres_1920_1929": 0, "oeuvres_1930_1939": 0, "oeuvres_1940_1949": 0, "oeuvres_1950_1959": 0, "oeuvres_1960_1969": 0, "oeuvres_1970_1979": 0, "oeuvres_1980_1989": 0, "oeuvres_1990_1999": 6, "oeuvres_2000_2009": 6, "oeuvres_2010_2019": 6, "oeuvres_1900_1909": 0, "nom_site": "TICKON" }, "geometry": { "type": "Point", "coordinates": [ 10.85509, 55.002 ] } },
{ "type": "Feature", "properties": { "id_site": 12, "oeuvres_1910_1919": 0, "oeuvres_1920_1929": 0, "oeuvres_1930_1939": 0, "oeuvres_1940_1949": 0, "oeuvres_1950_1959": 0, "oeuvres_1960_1969": 0, "oeuvres_1970_1979": 0, "oeuvres_1980_1989": 0, "oeuvres_1990_1999": 0, "oeuvres_2000_2009": 5, "oeuvres_2010_2019": 5, "oeuvres_1900_1909": 0, "nom_site": "Sentier des Lauzes, Ardèche" }, "geometry": { "type": "Point", "coordinates": [ 4.120132, 44.53056 ] } },
{ "type": "Feature", "properties": { "id_site": 13, "oeuvres_1910_1919": 0, "oeuvres_1920_1929": 0, "oeuvres_1930_1939": 0, "oeuvres_1940_1949": 0, "oeuvres_1950_1959": 0, "oeuvres_1960_1969": 0, "oeuvres_1970_1979": 0, "oeuvres_1980_1989": 0, "oeuvres_1990_1999": 0, "oeuvres_2000_2009": 0, "oeuvres_2010_2019": 7, "oeuvres_1900_1909": 0, "nom_site": "Ars Natura" }, "geometry": { "type": "Point", "coordinates": [ 9.51467, 51.29762 ] } },
{ "type": "Feature", "properties": { "id_site": 15, "oeuvres_1910_1919": 0, "oeuvres_1920_1929": 0, "oeuvres_1930_1939": 0, "oeuvres_1940_1949": 0, "oeuvres_1950_1959": 0, "oeuvres_1960_1969": 0, "oeuvres_1970_1979": 0, "oeuvres_1980_1989": 0, "oeuvres_1990_1999": 0, "oeuvres_2000_2009": 0, "oeuvres_2010_2019": 11, "oeuvres_1900_1909": 0, "nom_site": "Etangs d'arts" }, "geometry": { "type": "Point", "coordinates": [ -2.18441, 48.01424 ] } },
{ "type": "Feature", "properties": { "id_site": 18, "oeuvres_1910_1919": 0, "oeuvres_1920_1929": 0, "oeuvres_1930_1939": 0, "oeuvres_1940_1949": 0, "oeuvres_1950_1959": 0, "oeuvres_1960_1969": 0, "oeuvres_1970_1979": 0, "oeuvres_1980_1989": 0, "oeuvres_1990_1999": 4, "oeuvres_2000_2009": 8, "oeuvres_2010_2019": 17, "oeuvres_1900_1909": 0, "nom_site": "CAIRN" }, "geometry": { "type": "Point", "coordinates": [ 6.238208, 44.09382 ] } },
{ "type": "Feature", "properties": { "id_site": 19, "oeuvres_1910_1919": 0, "oeuvres_1920_1929": 0, "oeuvres_1930_1939": 0, "oeuvres_1940_1949": 0, "oeuvres_1950_1959": 0, "oeuvres_1960_1969": 0, "oeuvres_1970_1979": 0, "oeuvres_1980_1989": 0, "oeuvres_1990_1999": 0, "oeuvres_2000_2009": 31, "oeuvres_2010_2019": 124, "oeuvres_1900_1909": 0, "nom_site": "Horizon Nature Sancy" }, "geometry": { "type": "Point", "coordinates": [ 2.768594, 45.46451 ] } },
{ "type": "Feature", "properties": { "id_site": 21, "oeuvres_1910_1919": 0, "oeuvres_1920_1929": 0, "oeuvres_1930_1939": 0, "oeuvres_1940_1949": 0, "oeuvres_1950_1959": 0, "oeuvres_1960_1969": 0, "oeuvres_1970_1979": 0, "oeuvres_1980_1989": 0, "oeuvres_1990_1999": 0, "oeuvres_2000_2009": 1, "oeuvres_2010_2019": 10, "oeuvres_1900_1909": 0, "nom_site": "SAN" }, "geometry": { "type": "Point", "coordinates": [ 6.166083, 44.68327 ] } },
{ "type": "Feature", "properties": { "id_site": 22, "oeuvres_1910_1919": 0, "oeuvres_1920_1929": 0, "oeuvres_1930_1939": 0, "oeuvres_1940_1949": 0, "oeuvres_1950_1959": 0, "oeuvres_1960_1969": 0, "oeuvres_1970_1979": 0, "oeuvres_1980_1989": 0, "oeuvres_1990_1999": 0, "oeuvres_2000_2009": 2, "oeuvres_2010_2019": 2, "oeuvres_1900_1909": 0, "nom_site": "Sculpture in the Parklands" }, "geometry": { "type": "Point", "coordinates": [ -7.75853, 53.21013 ] } },
{ "type": "Feature", "properties": { "id_site": 26, "oeuvres_1910_1919": 0, "oeuvres_1920_1929": 0, "oeuvres_1930_1939": 0, "oeuvres_1940_1949": 0, "oeuvres_1950_1959": 0, "oeuvres_1960_1969": 0, "oeuvres_1970_1979": 0, "oeuvres_1980_1989": 0, "oeuvres_1990_1999": 0, "oeuvres_2000_2009": 13, "oeuvres_2010_2019": 13, "oeuvres_1900_1909": 0, "nom_site": "Bru Island" }, "geometry": { "type": "Point", "coordinates": [ 5.643582, 59.04181 ] } },
{ "type": "Feature", "properties": { "id_site": 29, "oeuvres_1910_1919": 0, "oeuvres_1920_1929": 0, "oeuvres_1930_1939": 0, "oeuvres_1940_1949": 0, "oeuvres_1950_1959": 0, "oeuvres_1960_1969": 0, "oeuvres_1970_1979": 0, "oeuvres_1980_1989": 0, "oeuvres_1990_1999": 2, "oeuvres_2000_2009": 7, "oeuvres_2010_2019": 7, "oeuvres_1900_1909": 0, "nom_site": "Fundacion Beulas" }, "geometry": { "type": "Point", "coordinates": [ -0.42934, 42.15059 ] } },
{ "type": "Feature", "properties": { "id_site": 30, "oeuvres_1910_1919": 0, "oeuvres_1920_1929": 0, "oeuvres_1930_1939": 0, "oeuvres_1940_1949": 0, "oeuvres_1950_1959": 0, "oeuvres_1960_1969": 0, "oeuvres_1970_1979": 0, "oeuvres_1980_1989": 0, "oeuvres_1990_1999": 1, "oeuvres_2000_2009": 3, "oeuvres_2010_2019": 20, "oeuvres_1900_1909": 0, "nom_site": "Domaine de Chaumont sur Loire" }, "geometry": { "type": "Point", "coordinates": [ 1.18197, 47.47906 ] } },
{ "type": "Feature", "properties": { "id_site": 31, "oeuvres_1910_1919": 0, "oeuvres_1920_1929": 0, "oeuvres_1930_1939": 0, "oeuvres_1940_1949": 0, "oeuvres_1950_1959": 0, "oeuvres_1960_1969": 0, "oeuvres_1970_1979": 0, "oeuvres_1980_1989": 0, "oeuvres_1990_1999": 0, "oeuvres_2000_2009": 10, "oeuvres_2010_2019": 16, "oeuvres_1900_1909": 0, "nom_site": "Château Lacoste" }, "geometry": { "type": "Point", "coordinates": [ 5.418992, 43.63589 ] } },
{ "type": "Feature", "properties": { "id_site": 32, "oeuvres_1910_1919": 0, "oeuvres_1920_1929": 0, "oeuvres_1930_1939": 0, "oeuvres_1940_1949": 0, "oeuvres_1950_1959": 0, "oeuvres_1960_1969": 0, "oeuvres_1970_1979": 0, "oeuvres_1980_1989": 0, "oeuvres_1990_1999": 1, "oeuvres_2000_2009": 3, "oeuvres_2010_2019": 3, "oeuvres_1900_1909": 0, "nom_site": "Chianti Sculpture Park" }, "geometry": { "type": "Point", "coordinates": [ 11.38138, 43.39373 ] } },
{ "type": "Feature", "properties": { "id_site": 34, "oeuvres_1910_1919": 0, "oeuvres_1920_1929": 0, "oeuvres_1930_1939": 0, "oeuvres_1940_1949": 0, "oeuvres_1950_1959": 0, "oeuvres_1960_1969": 0, "oeuvres_1970_1979": 0, "oeuvres_1980_1989": 0, "oeuvres_1990_1999": 0, "oeuvres_2000_2009": 22, "oeuvres_2010_2019": 27, "oeuvres_1900_1909": 0, "nom_site": "Understory" }, "geometry": { "type": "Point", "coordinates": [ 116.124, -34.6282 ] } },
{ "type": "Feature", "properties": { "id_site": 39, "oeuvres_1910_1919": 0, "oeuvres_1920_1929": 0, "oeuvres_1930_1939": 0, "oeuvres_1940_1949": 0, "oeuvres_1950_1959": 0, "oeuvres_1960_1969": 0, "oeuvres_1970_1979": 0, "oeuvres_1980_1989": 0, "oeuvres_1990_1999": 0, "oeuvres_2000_2009": 37, "oeuvres_2010_2019": 37, "oeuvres_1900_1909": 0, "nom_site": "Sentier Art et Nature" }, "geometry": { "type": "Point", "coordinates": [ 4.254992, 44.63661 ] } },
{ "type": "Feature", "properties": { "id_site": 42, "oeuvres_1910_1919": 0, "oeuvres_1920_1929": 0, "oeuvres_1930_1939": 0, "oeuvres_1940_1949": 0, "oeuvres_1950_1959": 0, "oeuvres_1960_1969": 0, "oeuvres_1970_1979": 0, "oeuvres_1980_1989": 23, "oeuvres_1990_1999": 35, "oeuvres_2000_2009": 41, "oeuvres_2010_2019": 46, "oeuvres_1900_1909": 0, "nom_site": "La ferme de Celle" }, "geometry": { "type": "Point", "coordinates": [ 10.98113, 43.9415 ] } },
{ "type": "Feature", "properties": { "id_site": 44, "oeuvres_1910_1919": 0, "oeuvres_1920_1929": 0, "oeuvres_1930_1939": 0, "oeuvres_1940_1949": 2, "oeuvres_1950_1959": 11, "oeuvres_1960_1969": 32, "oeuvres_1970_1979": 76, "oeuvres_1980_1989": 86, "oeuvres_1990_1999": 96, "oeuvres_2000_2009": 108, "oeuvres_2010_2019": 111, "oeuvres_1900_1909": 0, "nom_site": "Storm King Art Center" }, "geometry": { "type": "Point", "coordinates": [ -74.0633, 41.42672 ] } },
{ "type": "Feature", "properties": { "id_site": 49, "oeuvres_1910_1919": 0, "oeuvres_1920_1929": 0, "oeuvres_1930_1939": 0, "oeuvres_1940_1949": 0, "oeuvres_1950_1959": 0, "oeuvres_1960_1969": 0, "oeuvres_1970_1979": 0, "oeuvres_1980_1989": 0, "oeuvres_1990_1999": 23, "oeuvres_2000_2009": 44, "oeuvres_2010_2019": 44, "oeuvres_1900_1909": 0, "nom_site": "Europos Parkas" }, "geometry": { "type": "Point", "coordinates": [ 25.3547, 54.82919 ] } },
{ "type": "Feature", "properties": { "id_site": 52, "oeuvres_1910_1919": 0, "oeuvres_1920_1929": 0, "oeuvres_1930_1939": 0, "oeuvres_1940_1949": 0, "oeuvres_1950_1959": 0, "oeuvres_1960_1969": 0, "oeuvres_1970_1979": 0, "oeuvres_1980_1989": 0, "oeuvres_1990_1999": 0, "oeuvres_2000_2009": 5, "oeuvres_2010_2019": 10, "oeuvres_1900_1909": 0, "nom_site": "Vassivières" }, "geometry": { "type": "Point", "coordinates": [ 1.866098, 45.80189 ] } },
{ "type": "Feature", "properties": { "id_site": 55, "oeuvres_1910_1919": 0, "oeuvres_1920_1929": 0, "oeuvres_1930_1939": 0, "oeuvres_1940_1949": 0, "oeuvres_1950_1959": 0, "oeuvres_1960_1969": 0, "oeuvres_1970_1979": 0, "oeuvres_1980_1989": 1, "oeuvres_1990_1999": 3, "oeuvres_2000_2009": 7, "oeuvres_2010_2019": 12, "oeuvres_1900_1909": 0, "nom_site": "De Cordova" }, "geometry": { "type": "Point", "coordinates": [ -71.3108, 42.43086 ] } },
{ "type": "Feature", "properties": { "id_site": 57, "oeuvres_1910_1919": 0, "oeuvres_1920_1929": 0, "oeuvres_1930_1939": 0, "oeuvres_1940_1949": 0, "oeuvres_1950_1959": 0, "oeuvres_1960_1969": 0, "oeuvres_1970_1979": 0, "oeuvres_1980_1989": 19, "oeuvres_1990_1999": 42, "oeuvres_2000_2009": 63, "oeuvres_2010_2019": 88, "oeuvres_1900_1909": 0, "nom_site": "Djerassi Resident Artists Program" }, "geometry": { "type": "Point", "coordinates": [ -122.31, 37.37158 ] } },
{ "type": "Feature", "properties": { "id_site": 58, "oeuvres_1910_1919": 0, "oeuvres_1920_1929": 0, "oeuvres_1930_1939": 0, "oeuvres_1940_1949": 0, "oeuvres_1950_1959": 0, "oeuvres_1960_1969": 0, "oeuvres_1970_1979": 0, "oeuvres_1980_1989": 0, "oeuvres_1990_1999": 21, "oeuvres_2000_2009": 73, "oeuvres_2010_2019": 135, "oeuvres_1900_1909": 0, "nom_site": "Le Vent des forêts" }, "geometry": { "type": "Point", "coordinates": [ 5.439028, 48.89853 ] } },
{ "type": "Feature", "properties": { "id_site": 60, "oeuvres_1910_1919": 0, "oeuvres_1920_1929": 0, "oeuvres_1930_1939": 0, "oeuvres_1940_1949": 0, "oeuvres_1950_1959": 0, "oeuvres_1960_1969": 0, "oeuvres_1970_1979": 1, "oeuvres_1980_1989": 2, "oeuvres_1990_1999": 4, "oeuvres_2000_2009": 6, "oeuvres_2010_2019": 9, "oeuvres_1900_1909": 0, "nom_site": "Yorkshire Sculpture Park" }, "geometry": { "type": "Point", "coordinates": [ -1.56708, 53.61402 ] } },
{ "type": "Feature", "properties": { "id_site": 61, "oeuvres_1910_1919": 0, "oeuvres_1920_1929": 0, "oeuvres_1930_1939": 0, "oeuvres_1940_1949": 0, "oeuvres_1950_1959": 0, "oeuvres_1960_1969": 1, "oeuvres_1970_1979": 4, "oeuvres_1980_1989": 5, "oeuvres_1990_1999": 34, "oeuvres_2000_2009": 52, "oeuvres_2010_2019": 52, "oeuvres_1900_1909": 0, "nom_site": "Parco d'arte ambientale La Marrana" }, "geometry": { "type": "Point", "coordinates": [ 9.965192, 44.04531 ] } },
{ "type": "Feature", "properties": { "id_site": 64, "oeuvres_1910_1919": 0, "oeuvres_1920_1929": 0, "oeuvres_1930_1939": 0, "oeuvres_1940_1949": 0, "oeuvres_1950_1959": 0, "oeuvres_1960_1969": 0, "oeuvres_1970_1979": 0, "oeuvres_1980_1989": 0, "oeuvres_1990_1999": 18, "oeuvres_2000_2009": 18, "oeuvres_2010_2019": 18, "oeuvres_1900_1909": 0, "nom_site": "Artscape Norland" }, "geometry": { "type": "Point", "coordinates": [ 15.55041, 68.43068 ] } },
{ "type": "Feature", "properties": { "id_site": 66, "oeuvres_1910_1919": 6, "oeuvres_1920_1929": 10, "oeuvres_1930_1939": 17, "oeuvres_1940_1949": 20, "oeuvres_1950_1959": 50, "oeuvres_1960_1969": 85, "oeuvres_1970_1979": 98, "oeuvres_1980_1989": 121, "oeuvres_1990_1999": 132, "oeuvres_2000_2009": 148, "oeuvres_2010_2019": 151, "oeuvres_1900_1909": 0, "nom_site": "Kröller-Müller" }, "geometry": { "type": "Point", "coordinates": [ 5.817405, 52.09555 ] } },
{ "type": "Feature", "properties": { "id_site": 67, "oeuvres_1910_1919": 0, "oeuvres_1920_1929": 0, "oeuvres_1930_1939": 0, "oeuvres_1940_1949": 0, "oeuvres_1950_1959": 0, "oeuvres_1960_1969": 0, "oeuvres_1970_1979": 0, "oeuvres_1980_1989": 0, "oeuvres_1990_1999": 0, "oeuvres_2000_2009": 0, "oeuvres_2010_2019": 2, "oeuvres_1900_1909": 0, "nom_site": "Eden to Addo corridor Initiative" }, "geometry": { "type": "Point", "coordinates": [ 23.85778, -33.825 ] } },
{ "type": "Feature", "properties": { "id_site": 69, "oeuvres_1910_1919": 0, "oeuvres_1920_1929": 0, "oeuvres_1930_1939": 0, "oeuvres_1940_1949": 0, "oeuvres_1950_1959": 0, "oeuvres_1960_1969": 0, "oeuvres_1970_1979": 0, "oeuvres_1980_1989": 0, "oeuvres_1990_1999": 0, "oeuvres_2000_2009": 1, "oeuvres_2010_2019": 20, "oeuvres_1900_1909": 0, "nom_site": "La forêt d'art contemporain" }, "geometry": { "type": "Point", "coordinates": [ -0.83939, 44.52599 ] } },
{ "type": "Feature", "properties": { "id_site": 84, "oeuvres_1910_1919": 0, "oeuvres_1920_1929": 0, "oeuvres_1930_1939": 0, "oeuvres_1940_1949": 0, "oeuvres_1950_1959": 0, "oeuvres_1960_1969": 0, "oeuvres_1970_1979": 0, "oeuvres_1980_1989": 0, "oeuvres_1990_1999": 0, "oeuvres_2000_2009": 0, "oeuvres_2010_2019": 11, "oeuvres_1900_1909": 0, "nom_site": "Blackfoot Pathways" }, "geometry": { "type": "Point", "coordinates": [ -112.683, 46.95517 ] } },
{ "type": "Feature", "properties": { "id_site": 85, "oeuvres_1910_1919": 0, "oeuvres_1920_1929": 0, "oeuvres_1930_1939": 0, "oeuvres_1940_1949": 0, "oeuvres_1950_1959": 0, "oeuvres_1960_1969": 0, "oeuvres_1970_1979": 0, "oeuvres_1980_1989": 0, "oeuvres_1990_1999": 0, "oeuvres_2000_2009": 0, "oeuvres_2010_2019": 2, "oeuvres_1900_1909": 0, "nom_site": "Karoo Geoglyphs" }, "geometry": { "type": "Point", "coordinates": [ 20.58174, -33.2317 ] } },
{ "type": "Feature", "properties": { "id_site": 87, "oeuvres_1910_1919": 0, "oeuvres_1920_1929": 0, "oeuvres_1930_1939": 0, "oeuvres_1940_1949": 0, "oeuvres_1950_1959": 0, "oeuvres_1960_1969": 0, "oeuvres_1970_1979": 0, "oeuvres_1980_1989": 0, "oeuvres_1990_1999": 0, "oeuvres_2000_2009": 1, "oeuvres_2010_2019": 4, "oeuvres_1900_1909": 0, "nom_site": "Naoshima" }, "geometry": { "type": "Point", "coordinates": [ 133.971, 34.46342 ] } },
{ "type": "Feature", "properties": { "id_site": 91, "oeuvres_1910_1919": 0, "oeuvres_1920_1929": 0, "oeuvres_1930_1939": 0, "oeuvres_1940_1949": 0, "oeuvres_1950_1959": 0, "oeuvres_1960_1969": 0, "oeuvres_1970_1979": 1, "oeuvres_1980_1989": 14, "oeuvres_1990_1999": 19, "oeuvres_2000_2009": 23, "oeuvres_2010_2019": 33, "oeuvres_1900_1909": 0, "nom_site": "Domaine de Kerguéhennec" }, "geometry": { "type": "Point", "coordinates": [ -2.64075, 47.88091 ] } },
{ "type": "Feature", "properties": { "id_site": 92, "oeuvres_1910_1919": 0, "oeuvres_1920_1929": 0, "oeuvres_1930_1939": 0, "oeuvres_1940_1949": 0, "oeuvres_1950_1959": 0, "oeuvres_1960_1969": 0, "oeuvres_1970_1979": 14, "oeuvres_1980_1989": 87, "oeuvres_1990_1999": 188, "oeuvres_2000_2009": 219, "oeuvres_2010_2019": 233, "oeuvres_1900_1909": 0, "nom_site": "Forêt de Grizedale" }, "geometry": { "type": "Point", "coordinates": [ -3.02621, 54.3364 ] } },
{ "type": "Feature", "properties": { "id_site": 95, "oeuvres_1910_1919": 0, "oeuvres_1920_1929": 0, "oeuvres_1930_1939": 0, "oeuvres_1940_1949": 0, "oeuvres_1950_1959": 0, "oeuvres_1960_1969": 0, "oeuvres_1970_1979": 1, "oeuvres_1980_1989": 4, "oeuvres_1990_1999": 11, "oeuvres_2000_2009": 22, "oeuvres_2010_2019": 23, "oeuvres_1900_1909": 0, "nom_site": "Monastère de Schoenthal" }, "geometry": { "type": "Point", "coordinates": [ 7.773856, 47.35942 ] } },
{ "type": "Feature", "properties": { "id_site": 97, "oeuvres_1910_1919": 0, "oeuvres_1920_1929": 0, "oeuvres_1930_1939": 0, "oeuvres_1940_1949": 0, "oeuvres_1950_1959": 0, "oeuvres_1960_1969": 0, "oeuvres_1970_1979": 0, "oeuvres_1980_1989": 0, "oeuvres_1990_1999": 0, "oeuvres_2000_2009": 10, "oeuvres_2010_2019": 10, "oeuvres_1900_1909": 0, "nom_site": "Waldskulpturenweg" }, "geometry": { "type": "Point", "coordinates": [ 8.281608, 51.15249 ] } },
{ "type": "Feature", "properties": { "id_site": 104, "oeuvres_1910_1919": 0, "oeuvres_1920_1929": 0, "oeuvres_1930_1939": 0, "oeuvres_1940_1949": 0, "oeuvres_1950_1959": 0, "oeuvres_1960_1969": 0, "oeuvres_1970_1979": 0, "oeuvres_1980_1989": 0, "oeuvres_1990_1999": 0, "oeuvres_2000_2009": 0, "oeuvres_2010_2019": 30, "oeuvres_1900_1909": 0, "nom_site": "Ferme de Chosal -PLAD (Pôle Land Art Départemental)France \/ Haute-Savoie \/ Rhône-Alpes Auvergne" }, "geometry": { "type": "Point", "coordinates": [ 6.069286, 46.030093 ] } },
{ "type": "Feature", "properties": { "id_site": 108, "oeuvres_1910_1919": 0, "oeuvres_1920_1929": 0, "oeuvres_1930_1939": 0, "oeuvres_1940_1949": 0, "oeuvres_1950_1959": 0, "oeuvres_1960_1969": 0, "oeuvres_1970_1979": 0, "oeuvres_1980_1989": 0, "oeuvres_1990_1999": 0, "oeuvres_2000_2009": 0, "oeuvres_2010_2019": 6, "oeuvres_1900_1909": 0, "nom_site": "La petite escalère" }, "geometry": { "type": "Point", "coordinates": [ -1.273694, 43.508806 ] } },
{ "type": "Feature", "properties": { "id_site": 112, "oeuvres_1910_1919": 0, "oeuvres_1920_1929": 0, "oeuvres_1930_1939": 0, "oeuvres_1940_1949": 0, "oeuvres_1950_1959": 0, "oeuvres_1960_1969": 0, "oeuvres_1970_1979": 0, "oeuvres_1980_1989": 0, "oeuvres_1990_1999": 0, "oeuvres_2000_2009": 1, "oeuvres_2010_2019": 1, "oeuvres_1900_1909": 0, "nom_site": "The little Sparta Trust" }, "geometry": { "type": "Point", "coordinates": [ -3.511778, 55.744361 ] } },
{ "type": "Feature", "properties": { "id_site": 113, "oeuvres_1910_1919": 0, "oeuvres_1920_1929": 0, "oeuvres_1930_1939": 0, "oeuvres_1940_1949": 0, "oeuvres_1950_1959": 0, "oeuvres_1960_1969": 0, "oeuvres_1970_1979": 0, "oeuvres_1980_1989": 0, "oeuvres_1990_1999": 0, "oeuvres_2000_2009": 0, "oeuvres_2010_2019": 26, "oeuvres_1900_1909": 0, "nom_site": "île art malans" }, "geometry": { "type": "Point", "coordinates": [ 5.589083, 47.268083 ] } },
{ "type": "Feature", "properties": { "id_site": 115, "oeuvres_1910_1919": 0, "oeuvres_1920_1929": 0, "oeuvres_1930_1939": 0, "oeuvres_1940_1949": 0, "oeuvres_1950_1959": 0, "oeuvres_1960_1969": 0, "oeuvres_1970_1979": 0, "oeuvres_1980_1989": 1, "oeuvres_1990_1999": 16, "oeuvres_2000_2009": 23, "oeuvres_2010_2019": 28, "oeuvres_1900_1909": 0, "nom_site": "Gibbs Farm" }, "geometry": { "type": "Point", "coordinates": [ 174.449833, -36.519083 ] } },
{ "type": "Feature", "properties": { "id_site": 116, "oeuvres_1910_1919": 0, "oeuvres_1920_1929": 0, "oeuvres_1930_1939": 0, "oeuvres_1940_1949": 0, "oeuvres_1950_1959": 0, "oeuvres_1960_1969": 0, "oeuvres_1970_1979": 0, "oeuvres_1980_1989": 0, "oeuvres_1990_1999": 0, "oeuvres_2000_2009": 1, "oeuvres_2010_2019": 1, "oeuvres_1900_1909": 0, "nom_site": "Valais Sculpture Park" }, "geometry": { "type": "Point", "coordinates": [ 7.226306, 46.096861 ] } },
{ "type": "Feature", "properties": { "id_site": 117, "oeuvres_1910_1919": 0, "oeuvres_1920_1929": 0, "oeuvres_1930_1939": 0, "oeuvres_1940_1949": 0, "oeuvres_1950_1959": 0, "oeuvres_1960_1969": 0, "oeuvres_1970_1979": 0, "oeuvres_1980_1989": 0, "oeuvres_1990_1999": 0, "oeuvres_2000_2009": 0, "oeuvres_2010_2019": 3, "oeuvres_1900_1909": 0, "nom_site": "Parc de Sculptures Al Maaden" }, "geometry": { "type": "Point", "coordinates": [ -7.938833, 31.592 ] } },
{ "type": "Feature", "properties": { "id_site": 118, "oeuvres_1910_1919": 0, "oeuvres_1920_1929": 0, "oeuvres_1930_1939": 0, "oeuvres_1940_1949": 0, "oeuvres_1950_1959": 0, "oeuvres_1960_1969": 0, "oeuvres_1970_1979": 0, "oeuvres_1980_1989": 0, "oeuvres_1990_1999": 0, "oeuvres_2000_2009": 0, "oeuvres_2010_2019": 0, "oeuvres_1900_1909": 0, "nom_site": "Les vignobles de Montagnac" }, "geometry": { "type": "Point", "coordinates": [ 3.484917, 43.477833 ] } },
{ "type": "Feature", "properties": { "id_site": 121, "oeuvres_1910_1919": 0, "oeuvres_1920_1929": 0, "oeuvres_1930_1939": 0, "oeuvres_1940_1949": 0, "oeuvres_1950_1959": 0, "oeuvres_1960_1969": 0, "oeuvres_1970_1979": 0, "oeuvres_1980_1989": 0, "oeuvres_1990_1999": 0, "oeuvres_2000_2009": 23, "oeuvres_2010_2019": 44, "oeuvres_1900_1909": 0, "nom_site": "Sculptures en liberté" }, "geometry": { "type": "Point", "coordinates": [ 3.865232, 44.478188 ] } },
{ "type": "Feature", "properties": { "id_site": 122, "oeuvres_1910_1919": 0, "oeuvres_1920_1929": 0, "oeuvres_1930_1939": 0, "oeuvres_1940_1949": 0, "oeuvres_1950_1959": 0, "oeuvres_1960_1969": 0, "oeuvres_1970_1979": 0, "oeuvres_1980_1989": 0, "oeuvres_1990_1999": 18, "oeuvres_2000_2009": 42, "oeuvres_2010_2019": 54, "oeuvres_1900_1909": 0, "nom_site": "Godfrey Sculpture Park" }, "geometry": { "type": "Point", "coordinates": [ -76.633417, 44.575667 ] } },
{ "type": "Feature", "properties": { "id_site": 123, "oeuvres_1910_1919": 0, "oeuvres_1920_1929": 0, "oeuvres_1930_1939": 0, "oeuvres_1940_1949": 0, "oeuvres_1950_1959": 0, "oeuvres_1960_1969": 0, "oeuvres_1970_1979": 0, "oeuvres_1980_1989": 0, "oeuvres_1990_1999": 0, "oeuvres_2000_2009": 20, "oeuvres_2010_2019": 35, "oeuvres_1900_1909": 0, "nom_site": "Haliburton Sculpture Forest" }, "geometry": { "type": "Point", "coordinates": [ -78.524198, 45.052386 ] } },
{ "type": "Feature", "properties": { "id_site": 125, "oeuvres_1910_1919": 0, "oeuvres_1920_1929": 0, "oeuvres_1930_1939": 0, "oeuvres_1940_1949": 0, "oeuvres_1950_1959": 0, "oeuvres_1960_1969": 0, "oeuvres_1970_1979": 0, "oeuvres_1980_1989": 0, "oeuvres_1990_1999": 0, "oeuvres_2000_2009": 0, "oeuvres_2010_2019": 13, "oeuvres_1900_1909": 0, "nom_site": "nature art project" }, "geometry": { "type": "Point", "coordinates": [ 25.907667, 45.817444 ] } },
{ "type": "Feature", "properties": { "id_site": 127, "oeuvres_1910_1919": 0, "oeuvres_1920_1929": 0, "oeuvres_1930_1939": 0, "oeuvres_1940_1949": 0, "oeuvres_1950_1959": 0, "oeuvres_1960_1969": 0, "oeuvres_1970_1979": 0, "oeuvres_1980_1989": 0, "oeuvres_1990_1999": 0, "oeuvres_2000_2009": 87, "oeuvres_2010_2019": 176, "oeuvres_1900_1909": 0, "nom_site": "Oranki Art" }, "geometry": { "type": "Point", "coordinates": [ 23.965667, 66.776944 ] } },
{ "type": "Feature", "properties": { "id_site": 131, "oeuvres_1910_1919": 0, "oeuvres_1920_1929": 0, "oeuvres_1930_1939": 0, "oeuvres_1940_1949": 0, "oeuvres_1950_1959": 0, "oeuvres_1960_1969": 0, "oeuvres_1970_1979": 0, "oeuvres_1980_1989": 0, "oeuvres_1990_1999": 0, "oeuvres_2000_2009": 0, "oeuvres_2010_2019": 0, "oeuvres_1900_1909": 0, "nom_site": "Parque de las artes Marañon" }, "geometry": { "type": "Point", "coordinates": [ -69.36417, -32.46611 ] } },
{ "type": "Feature", "properties": { "id_site": 135, "oeuvres_1910_1919": 0, "oeuvres_1920_1929": 0, "oeuvres_1930_1939": 0, "oeuvres_1940_1949": 0, "oeuvres_1950_1959": 0, "oeuvres_1960_1969": 0, "oeuvres_1970_1979": 0, "oeuvres_1980_1989": 0, "oeuvres_1990_1999": 0, "oeuvres_2000_2009": 0, "oeuvres_2010_2019": 6, "oeuvres_1900_1909": 0, "nom_site": "La Ligne de Partage des Eaux" }, "geometry": { "type": "Point", "coordinates": [ 4.25472, 44.63639 ] } },
{ "type": "Feature", "properties": { "id_site": 136, "oeuvres_1910_1919": 0, "oeuvres_1920_1929": 0, "oeuvres_1930_1939": 0, "oeuvres_1940_1949": 0, "oeuvres_1950_1959": 0, "oeuvres_1960_1969": 0, "oeuvres_1970_1979": 0, "oeuvres_1980_1989": 0, "oeuvres_1990_1999": 0, "oeuvres_2000_2009": 1, "oeuvres_2010_2019": 1, "oeuvres_1900_1909": 0, "nom_site": "Le Chemin des Cinq Sens" }, "geometry": { "type": "Point", "coordinates": [ 4.4419, 44.8679 ] } },
{ "type": "Feature", "properties": { "id_site": 137, "oeuvres_1910_1919": 0, "oeuvres_1920_1929": 0, "oeuvres_1930_1939": 0, "oeuvres_1940_1949": 0, "oeuvres_1950_1959": 0, "oeuvres_1960_1969": 0, "oeuvres_1970_1979": 0, "oeuvres_1980_1989": 0, "oeuvres_1990_1999": 0, "oeuvres_2000_2009": 96, "oeuvres_2010_2019": 170, "oeuvres_1900_1909": 0, "nom_site": "Arboretum Marcel Kroenlein" }, "geometry": { "type": "Point", "coordinates": [ 7.08944, 44.09556 ] } },
{ "type": "Feature", "properties": { "id_site": 141, "oeuvres_1910_1919": 0, "oeuvres_1920_1929": 0, "oeuvres_1930_1939": 0, "oeuvres_1940_1949": 0, "oeuvres_1950_1959": 1, "oeuvres_1960_1969": 2, "oeuvres_1970_1979": 4, "oeuvres_1980_1989": 7, "oeuvres_1990_1999": 13, "oeuvres_2000_2009": 29, "oeuvres_2010_2019": 37, "oeuvres_1900_1909": 0, "nom_site": "Les sculptures monumentales" }, "geometry": { "type": "Point", "coordinates": [ 6.26361, 43.37944 ] } }
]
}
