{
"type": "FeatureCollection",
"name": "evol_sites",
"crs": { "type": "name", "properties": { "name": "urn:ogc:def:crs:OGC:1.3:CRS84" } },
"features": [
{ "type": "Feature", "properties": { "id_site": 0, "nom": "The Land : an art site", "pays_iso": "US", "annee_ouve": 1998 }, "geometry": { "type": "Point", "coordinates": [ -106.361, 34.60334 ] } },
{ "type": "Feature", "properties": { "id_site": 1, "nom": "Forest of Dean Sculpture Trust", "pays_iso": "GB", "annee_ouve": 1986 }, "geometry": { "type": "Point", "coordinates": [ -2.56433, 51.79462 ] } },
{ "type": "Feature", "properties": { "id_site": 2, "nom": "Boreal Sculpture Garden", "pays_iso": "CA", "annee_ouve": 1995 }, "geometry": { "type": "Point", "coordinates": [ -52.7215, 47.558 ] } },
{ "type": "Feature", "properties": { "id_site": 3, "nom": "MUSA (Museo Subaquatico de Arte)", "pays_iso": "MX", "annee_ouve": 2010 }, "geometry": { "type": "Point", "coordinates": [ -86.7259, 21.2009 ] } },
{ "type": "Feature", "properties": { "id_site": 4, "nom": "Poustinia Land Art Park", "pays_iso": "BZ", "annee_ouve": 1989 }, "geometry": { "type": "Point", "coordinates": [ -89.0886, 17.02474 ] } },
{ "type": "Feature", "properties": { "id_site": 5, "nom": "Krakamarken", "pays_iso": "DK", "annee_ouve": 1992 }, "geometry": { "type": "Point", "coordinates": [ 10.1083, 56.4054 ] } },
{ "type": "Feature", "properties": { "id_site": 6, "nom": "ArteSella", "pays_iso": "IT", "annee_ouve": 1986 }, "geometry": { "type": "Point", "coordinates": [ 11.37922, 46.00619 ] } },
{ "type": "Feature", "properties": { "id_site": 7, "nom": "Site Specific", "pays_iso": "ZA", "annee_ouve": 2011 }, "geometry": { "type": "Point", "coordinates": [ 23.36419, -34.0508 ] } },
{ "type": "Feature", "properties": { "id_site": 8, "nom": "Fundacion Cesar Manrique", "pays_iso": "ES", "annee_ouve": 1992 }, "geometry": { "type": "Point", "coordinates": [ -13.5475, 29.00196 ] } },
{ "type": "Feature", "properties": { "id_site": 9, "nom": "TICKON", "pays_iso": "DK", "annee_ouve": 1990 }, "geometry": { "type": "Point", "coordinates": [ 10.85509, 55.002 ] } },
{ "type": "Feature", "properties": { "id_site": 10, "nom": "Stone Quarry Hill Art Park", "pays_iso": "US", "annee_ouve": 1991 }, "geometry": { "type": "Point", "coordinates": [ -75.8349, 42.91189 ] } },
{ "type": "Feature", "properties": { "id_site": 11, "nom": "VIAPAC", "pays_iso": "IT", "annee_ouve": 2012 }, "geometry": { "type": "Point", "coordinates": [ 6.897821, 44.42261 ] } },
{ "type": "Feature", "properties": { "id_site": 12, "nom": "Sentier des Lauzes, Ardèche", "pays_iso": "FR", "annee_ouve": 2000 }, "geometry": { "type": "Point", "coordinates": [ 4.120132, 44.53056 ] } },
{ "type": "Feature", "properties": { "id_site": 13, "nom": "Ars Natura", "pays_iso": "DE", "annee_ouve": 2001 }, "geometry": { "type": "Point", "coordinates": [ 9.51467, 51.29762 ] } },
{ "type": "Feature", "properties": { "id_site": 14, "nom": "Cerro Gallinero", "pays_iso": "ES", "annee_ouve": 2010 }, "geometry": { "type": "Point", "coordinates": [ -4.97568, 40.39869 ] } },
{ "type": "Feature", "properties": { "id_site": 15, "nom": "Etangs d'arts", "pays_iso": "FR", "annee_ouve": 2006 }, "geometry": { "type": "Point", "coordinates": [ -2.18441, 48.01424 ] } },
{ "type": "Feature", "properties": { "id_site": 16, "nom": "Parque Escultorico Cementerio de Carretas", "pays_iso": "CL", "annee_ouve": 2000 }, "geometry": { "type": "Point", "coordinates": [ -70.716, -32.6328 ] } },
{ "type": "Feature", "properties": { "id_site": 17, "nom": "Natuurkunst Drenthe", "pays_iso": "NL", "annee_ouve": 2005 }, "geometry": { "type": "Point", "coordinates": [ 6.807651, 52.76578 ] } },
{ "type": "Feature", "properties": { "id_site": 18, "nom": "CAIRN", "pays_iso": "FR", "annee_ouve": 2000 }, "geometry": { "type": "Point", "coordinates": [ 6.238208, 44.09382 ] } },
{ "type": "Feature", "properties": { "id_site": 19, "nom": "Horizon Nature Sancy", "pays_iso": "FR", "annee_ouve": 2007 }, "geometry": { "type": "Point", "coordinates": [ 2.768594, 45.46451 ] } },
{ "type": "Feature", "properties": { "id_site": 20, "nom": "INHOTIM", "pays_iso": "BR", "annee_ouve": 2002 }, "geometry": { "type": "Point", "coordinates": [ -44.2153, -20.1282 ] } },
{ "type": "Feature", "properties": { "id_site": 21, "nom": "SAN", "pays_iso": "FR", "annee_ouve": 2008 }, "geometry": { "type": "Point", "coordinates": [ 6.166083, 44.68327 ] } },
{ "type": "Feature", "properties": { "id_site": 22, "nom": "Sculpture in the Parklands", "pays_iso": "IE", "annee_ouve": 2002 }, "geometry": { "type": "Point", "coordinates": [ -7.75853, 53.21013 ] } },
{ "type": "Feature", "properties": { "id_site": 23, "nom": "The Ewe", "pays_iso": "IE", "annee_ouve": 2006 }, "geometry": { "type": "Point", "coordinates": [ -9.56915, 51.77741 ] } },
{ "type": "Feature", "properties": { "id_site": 24, "nom": "Fundacion Pablo Atchugarry", "pays_iso": "UY", "annee_ouve": 2007 }, "geometry": { "type": "Point", "coordinates": [ -54.8212, -34.866 ] } },
{ "type": "Feature", "properties": { "id_site": 25, "nom": "Sculptensologne", "pays_iso": "FR", "annee_ouve": 2009 }, "geometry": { "type": "Point", "coordinates": [ 1.853623, 47.63226 ] } },
{ "type": "Feature", "properties": { "id_site": 26, "nom": "Bru Island", "pays_iso": "NO", "annee_ouve": 2008 }, "geometry": { "type": "Point", "coordinates": [ 5.643582, 59.04181 ] } },
{ "type": "Feature", "properties": { "id_site": 27, "nom": "Hélicoop", "pays_iso": "FR", "annee_ouve": 2006 }, "geometry": { "type": "Point", "coordinates": [ 7.062583, 48.41844 ] } },
{ "type": "Feature", "properties": { "id_site": 28, "nom": "Fundacion NMAC", "pays_iso": "ES", "annee_ouve": 2001 }, "geometry": { "type": "Point", "coordinates": [ -5.90242, 36.24292 ] } },
{ "type": "Feature", "properties": { "id_site": 29, "nom": "Fundacion Beulas", "pays_iso": "ES", "annee_ouve": 2006 }, "geometry": { "type": "Point", "coordinates": [ -0.42934, 42.15059 ] } },
{ "type": "Feature", "properties": { "id_site": 30, "nom": "Domaine de Chaumont sur Loire", "pays_iso": "FR", "annee_ouve": 2008 }, "geometry": { "type": "Point", "coordinates": [ 1.18197, 47.47906 ] } },
{ "type": "Feature", "properties": { "id_site": 31, "nom": "Château Lacoste", "pays_iso": "FR", "annee_ouve": 2011 }, "geometry": { "type": "Point", "coordinates": [ 5.418992, 43.63589 ] } },
{ "type": "Feature", "properties": { "id_site": 32, "nom": "Chianti Sculpture Park", "pays_iso": "IT", "annee_ouve": 2004 }, "geometry": { "type": "Point", "coordinates": [ 11.38138, 43.39373 ] } },
{ "type": "Feature", "properties": { "id_site": 33, "nom": "Waitakaruru Arboretum", "pays_iso": "NZ", "annee_ouve": 2003 }, "geometry": { "type": "Point", "coordinates": [ 175.4693, -37.7787 ] } },
{ "type": "Feature", "properties": { "id_site": 34, "nom": "Understory", "pays_iso": "AU", "annee_ouve": 2006 }, "geometry": { "type": "Point", "coordinates": [ 116.124, -34.6282 ] } },
{ "type": "Feature", "properties": { "id_site": 35, "nom": "NIROX", "pays_iso": "ZA", "annee_ouve": 2007 }, "geometry": { "type": "Point", "coordinates": [ 27.78509, -25.9847 ] } },
{ "type": "Feature", "properties": { "id_site": 36, "nom": "Nevada Museum of Art", "pays_iso": "US", "annee_ouve": 2009 }, "geometry": { "type": "Point", "coordinates": [ -119.813, 39.52083 ] } },
{ "type": "Feature", "properties": { "id_site": 37, "nom": "Guilin YUZI Paradise", "pays_iso": "CN", "annee_ouve": 1996 }, "geometry": { "type": "Point", "coordinates": [ 110.335, 25.04537 ] } },
{ "type": "Feature", "properties": { "id_site": 38, "nom": "Ladonia", "pays_iso": "SE", "annee_ouve": 1980 }, "geometry": { "type": "Point", "coordinates": [ 12.53933, 56.28763 ] } },
{ "type": "Feature", "properties": { "id_site": 39, "nom": "Sentier Art et Nature", "pays_iso": "FR", "annee_ouve": 2002 }, "geometry": { "type": "Point", "coordinates": [ 4.254992, 44.63661 ] } },
{ "type": "Feature", "properties": { "id_site": 40, "nom": "Eco-shrine", "pays_iso": "ZA", "annee_ouve": 1995 }, "geometry": { "type": "Point", "coordinates": [ 26.92419, -32.6035 ] } },
{ "type": "Feature", "properties": { "id_site": 41, "nom": "CAN", "pays_iso": "ES", "annee_ouve": 1996 }, "geometry": { "type": "Point", "coordinates": [ 1.271628, 42.49716 ] } },
{ "type": "Feature", "properties": { "id_site": 42, "nom": "La ferme de Celle", "pays_iso": "IT", "annee_ouve": 1982 }, "geometry": { "type": "Point", "coordinates": [ 10.98113, 43.9415 ] } },
{ "type": "Feature", "properties": { "id_site": 43, "nom": "fondo xilitla", "pays_iso": "MX", "annee_ouve": 1960 }, "geometry": { "type": "Point", "coordinates": [ -98.9942, 21.39265 ] } },
{ "type": "Feature", "properties": { "id_site": 44, "nom": "Storm King Art Center", "pays_iso": "US", "annee_ouve": 1966 }, "geometry": { "type": "Point", "coordinates": [ -74.0633, 41.42672 ] } },
{ "type": "Feature", "properties": { "id_site": 45, "nom": "Sierra", "pays_iso": "ES", "annee_ouve": 2010 }, "geometry": { "type": "Point", "coordinates": [ -6.71818, 37.85368 ] } },
{ "type": "Feature", "properties": { "id_site": 46, "nom": "Pedvale", "pays_iso": "LV", "annee_ouve": 1991 }, "geometry": { "type": "Point", "coordinates": [ 22.56029, 57.03198 ] } },
{ "type": "Feature", "properties": { "id_site": 47, "nom": "Wanas Art", "pays_iso": "SE", "annee_ouve": 1987 }, "geometry": { "type": "Point", "coordinates": [ 14.04646, 56.18747 ] } },
{ "type": "Feature", "properties": { "id_site": 48, "nom": "Mustarinda", "pays_iso": "FI", "annee_ouve": 2010 }, "geometry": { "type": "Point", "coordinates": [ 28.08536, 64.72539 ] } },
{ "type": "Feature", "properties": { "id_site": 49, "nom": "Europos Parkas", "pays_iso": "LT", "annee_ouve": 1991 }, "geometry": { "type": "Point", "coordinates": [ 25.3547, 54.82919 ] } },
{ "type": "Feature", "properties": { "id_site": 50, "nom": "RURART", "pays_iso": "FR", "annee_ouve": 1995 }, "geometry": { "type": "Point", "coordinates": [ 0.074813, 46.40668 ] } },
{ "type": "Feature", "properties": { "id_site": 51, "nom": "arte in situ", "pays_iso": "AR", "annee_ouve": 2011 }, "geometry": { "type": "Point", "coordinates": [ -67.7007, -53.786 ] } },
{ "type": "Feature", "properties": { "id_site": 52, "nom": "Vassivières", "pays_iso": "FR", "annee_ouve": 1993 }, "geometry": { "type": "Point", "coordinates": [ 1.866098, 45.80189 ] } },
{ "type": "Feature", "properties": { "id_site": 53, "nom": "Oak Wild ranch and sculpture", "pays_iso": "US", "annee_ouve": 2010 }, "geometry": { "type": "Point", "coordinates": [ -120.904, 38.1302 ] } },
{ "type": "Feature", "properties": { "id_site": 54, "nom": "Stour Valley Arts", "pays_iso": "GB", "annee_ouve": 1994 }, "geometry": { "type": "Point", "coordinates": [ 0.888369, 51.21598 ] } },
{ "type": "Feature", "properties": { "id_site": 55, "nom": "De Cordova", "pays_iso": "GB", "annee_ouve": 2010 }, "geometry": { "type": "Point", "coordinates": [ -71.3108, 42.43086 ] } },
{ "type": "Feature", "properties": { "id_site": 56, "nom": "Adirondack Sacandaga River", "pays_iso": "US", "annee_ouve": 1987 }, "geometry": { "type": "Point", "coordinates": [ -74.2883, 43.38756 ] } },
{ "type": "Feature", "properties": { "id_site": 57, "nom": "Djerassi Resident Artists Program", "pays_iso": "US", "annee_ouve": 1979 }, "geometry": { "type": "Point", "coordinates": [ -122.31, 37.37158 ] } },
{ "type": "Feature", "properties": { "id_site": 58, "nom": "Le Vent des forêts", "pays_iso": "FR", "annee_ouve": 1997 }, "geometry": { "type": "Point", "coordinates": [ 5.439028, 48.89853 ] } },
{ "type": "Feature", "properties": { "id_site": 59, "nom": "Sitka", "pays_iso": "US", "annee_ouve": 1970 }, "geometry": { "type": "Point", "coordinates": [ -123.992, 45.04777 ] } },
{ "type": "Feature", "properties": { "id_site": 60, "nom": "Yorkshire Sculpture Park", "pays_iso": "GB", "annee_ouve": 1987 }, "geometry": { "type": "Point", "coordinates": [ -1.56708, 53.61402 ] } },
{ "type": "Feature", "properties": { "id_site": 61, "nom": "Parco d'arte ambientale La Marrana", "pays_iso": "IT", "annee_ouve": 1996 }, "geometry": { "type": "Point", "coordinates": [ 9.965192, 44.04531 ] } },
{ "type": "Feature", "properties": { "id_site": 62, "nom": "Springhornhof", "pays_iso": "DE", "annee_ouve": 1967 }, "geometry": { "type": "Point", "coordinates": [ 9.787078, 53.05614 ] } },
{ "type": "Feature", "properties": { "id_site": 63, "nom": "Geumgang Nature Art Biennale", "pays_iso": "KR", "annee_ouve": 1990 }, "geometry": { "type": "Point", "coordinates": [ 127.102532, 36.475095 ] } },
{ "type": "Feature", "properties": { "id_site": 64, "nom": "Artscape Norland", "pays_iso": "NO", "annee_ouve": 1992 }, "geometry": { "type": "Point", "coordinates": [ 15.55041, 68.43068 ] } },
{ "type": "Feature", "properties": { "id_site": 65, "nom": "Goldwell", "pays_iso": "US", "annee_ouve": 1984 }, "geometry": { "type": "Point", "coordinates": [ -116.811, 36.88656 ] } },
{ "type": "Feature", "properties": { "id_site": 66, "nom": "Kröller-Müller", "pays_iso": "NL", "annee_ouve": 1961 }, "geometry": { "type": "Point", "coordinates": [ 5.817405, 52.09555 ] } },
{ "type": "Feature", "properties": { "id_site": 67, "nom": "Eden to Addo corridor Initiative", "pays_iso": "ZA", "annee_ouve": 2010 }, "geometry": { "type": "Point", "coordinates": [ 23.85778, -33.825 ] } },
{ "type": "Feature", "properties": { "id_site": 69, "nom": "La forêt d'art contemporain", "pays_iso": "FR", "annee_ouve": 2011 }, "geometry": { "type": "Point", "coordinates": [ -0.83939, 44.52599 ] } },
{ "type": "Feature", "properties": { "id_site": 70, "nom": "Omako Basoa", "pays_iso": "ES", "annee_ouve": 1982 }, "geometry": { "type": "Point", "coordinates": [ -2.63989, 43.34638 ] } },
{ "type": "Feature", "properties": { "id_site": 72, "nom": "Jardin des Cairns", "pays_iso": "FR", "annee_ouve": 2014 }, "geometry": { "type": "Point", "coordinates": [ 6.410661, 45.27303 ] } },
{ "type": "Feature", "properties": { "id_site": 73, "nom": "Parcours des Fées", "pays_iso": "FR", "annee_ouve": 2006 }, "geometry": { "type": "Point", "coordinates": [ 6.608846, 44.54785 ] } },
{ "type": "Feature", "properties": { "id_site": 74, "nom": "Parcours Art & Nature", "pays_iso": "FR", "annee_ouve": 2013 }, "geometry": { "type": "Point", "coordinates": [ -1.48839, 47.29594 ] } },
{ "type": "Feature", "properties": { "id_site": 75, "nom": "Festival de l'Estran", "pays_iso": "FR", "annee_ouve": 2008 }, "geometry": { "type": "Point", "coordinates": [ -3.56644, 48.76925 ] } },
{ "type": "Feature", "properties": { "id_site": 76, "nom": "In Situ", "pays_iso": "FR", "annee_ouve": 2006 }, "geometry": { "type": "Point", "coordinates": [ 4.627922, 43.67334 ] } },
{ "type": "Feature", "properties": { "id_site": 77, "nom": "Forest Art Wisconsin", "pays_iso": "US", "annee_ouve": 2007 }, "geometry": { "type": "Point", "coordinates": [ -89.7089, 45.87088 ] } },
{ "type": "Feature", "properties": { "id_site": 78, "nom": "Guapamacataro", "pays_iso": "MX", "annee_ouve": 2006 }, "geometry": { "type": "Point", "coordinates": [ -100.45, 19.89759 ] } },
{ "type": "Feature", "properties": { "id_site": 79, "nom": "Cheng-Long Wetlands", "pays_iso": "TW", "annee_ouve": 2010 }, "geometry": { "type": "Point", "coordinates": [ 120.1517, 23.55583 ] } },
{ "type": "Feature", "properties": { "id_site": 80, "nom": "Grandeur Nature", "pays_iso": "FR", "annee_ouve": 2005 }, "geometry": { "type": "Point", "coordinates": [ 5.37252, 44.17953 ] } },
{ "type": "Feature", "properties": { "id_site": 81, "nom": "Halikonlahti", "pays_iso": "FI", "annee_ouve": 2006 }, "geometry": { "type": "Point", "coordinates": [ 23.13295, 60.39245 ] } },
{ "type": "Feature", "properties": { "id_site": 82, "nom": "Sylv'art", "pays_iso": "FR", "annee_ouve": 2014 }, "geometry": { "type": "Point", "coordinates": [ 3.623739, 44.17919 ] } },
{ "type": "Feature", "properties": { "id_site": 83, "nom": "Polyculture", "pays_iso": "FR", "annee_ouve": 2009 }, "geometry": { "type": "Point", "coordinates": [ 4.249727, 45.92054 ] } },
{ "type": "Feature", "properties": { "id_site": 84, "nom": "Blackfoot Pathways", "pays_iso": "US", "annee_ouve": 2014 }, "geometry": { "type": "Point", "coordinates": [ -112.683, 46.95517 ] } },
{ "type": "Feature", "properties": { "id_site": 85, "nom": "Karoo Geoglyphs", "pays_iso": "ZA", "annee_ouve": 2009 }, "geometry": { "type": "Point", "coordinates": [ 20.58174, -33.2317 ] } },
{ "type": "Feature", "properties": { "id_site": 86, "nom": "EVA", "pays_iso": "FR", "annee_ouve": 2013 }, "geometry": { "type": "Point", "coordinates": [ 2.526283, 43.32709 ] } },
{ "type": "Feature", "properties": { "id_site": 87, "nom": "Naoshima", "pays_iso": "JP", "annee_ouve": 1989 }, "geometry": { "type": "Point", "coordinates": [ 133.971, 34.46342 ] } },
{ "type": "Feature", "properties": { "id_site": 88, "nom": "Hakone", "pays_iso": "JP", "annee_ouve": 1969 }, "geometry": { "type": "Point", "coordinates": [ 139.0302, 35.23148 ] } },
{ "type": "Feature", "properties": { "id_site": 89, "nom": "Kunstwegen (projet transfrontalier liant Skulpturenweg Nordhorn (1970-1997) et côté néerlandais Kunstlijn (à partir de 1993)", "pays_iso": "DE", "annee_ouve": 2000 }, "geometry": { "type": "Point", "coordinates": [ 7.071584, 52.42872 ] } },
{ "type": "Feature", "properties": { "id_site": 90, "nom": "L'abrègement", "pays_iso": "FR", "annee_ouve": 2000 }, "geometry": { "type": "Point", "coordinates": [ 0.274189, 46.03006 ] } },
{ "type": "Feature", "properties": { "id_site": 91, "nom": "Domaine de Kerguéhennec", "pays_iso": "FR", "annee_ouve": 1986 }, "geometry": { "type": "Point", "coordinates": [ -2.64075, 47.88091 ] } },
{ "type": "Feature", "properties": { "id_site": 92, "nom": "Forêt de Grizedale", "pays_iso": "GB", "annee_ouve": 1977 }, "geometry": { "type": "Point", "coordinates": [ -3.02621, 54.3364 ] } },
{ "type": "Feature", "properties": { "id_site": 93, "nom": "Kielder Water and Forest Park", "pays_iso": "GB", "annee_ouve": 1995 }, "geometry": { "type": "Point", "coordinates": [ -2.41595, 55.30897 ] } },
{ "type": "Feature", "properties": { "id_site": 94, "nom": "Tyrebagger", "pays_iso": "GB", "annee_ouve": 1994 }, "geometry": { "type": "Point", "coordinates": [ -2.50462, 57.05233 ] } },
{ "type": "Feature", "properties": { "id_site": 95, "nom": "Monastère de Schoenthal", "pays_iso": "CH", "annee_ouve": 2001 }, "geometry": { "type": "Point", "coordinates": [ 7.773856, 47.35942 ] } },
{ "type": "Feature", "properties": { "id_site": 96, "nom": "Domaine de Chamarande", "pays_iso": "FR", "annee_ouve": 2012 }, "geometry": { "type": "Point", "coordinates": [ 2.21398, 48.51534 ] } },
{ "type": "Feature", "properties": { "id_site": 97, "nom": "Waldskulpturenweg", "pays_iso": "DE", "annee_ouve": 2000 }, "geometry": { "type": "Point", "coordinates": [ 8.281608, 51.15249 ] } },
{ "type": "Feature", "properties": { "id_site": 98, "nom": "Cloudstone Sculpture Park", "pays_iso": "US", "annee_ouve": 2009 }, "geometry": { "type": "Point", "coordinates": [ -122.587, 48.05734 ] } },
{ "type": "Feature", "properties": { "id_site": 99, "nom": "Earth Sanctuary", "pays_iso": "US", "annee_ouve": 2000 }, "geometry": { "type": "Point", "coordinates": [ -122.498, 48.01251 ] } },
{ "type": "Feature", "properties": { "id_site": 100, "nom": "Brick bay sculpture trail", "pays_iso": "NZ", "annee_ouve": 1986 }, "geometry": { "type": "Point", "coordinates": [ 174.723, -36.4048 ] } },
{ "type": "Feature", "properties": { "id_site": 101, "nom": "Cold Hollow", "pays_iso": "US", "annee_ouve": 2014 }, "geometry": { "type": "Point", "coordinates": [ -72.7624, 44.86018 ] } },
{ "type": "Feature", "properties": { "id_site": 102, "nom": "Sculpture Trails", "pays_iso": "US", "annee_ouve": 2002 }, "geometry": { "type": "Point", "coordinates": [ -86.7822, 39.12042 ] } },
{ "type": "Feature", "properties": { "id_site": 103, "nom": "The Lightning Field", "pays_iso": "US", "annee_ouve": 1977 }, "geometry": { "type": "Point", "coordinates": [ -108.499, 34.40077 ] } },
{ "type": "Feature", "properties": { "id_site": 104, "nom": "Ferme de Chosal -PLAD (Pôle Land Art Départemental)France \/ Haute-Savoie \/ Rhône-Alpes Auvergne", "pays_iso": "FR", "annee_ouve": 2010 }, "geometry": { "type": "Point", "coordinates": [ 6.0692857, 46.030093 ] } },
{ "type": "Feature", "properties": { "id_site": 105, "nom": "Jupiter Artland", "pays_iso": "GB", "annee_ouve": 2010 }, "geometry": { "type": "Point", "coordinates": [ -3.422888889, 55.90694444 ] } },
{ "type": "Feature", "properties": { "id_site": 106, "nom": "Border Sculpture Park, Ecosse", "pays_iso": "GB", "annee_ouve": 2017 }, "geometry": { "type": "Point", "coordinates": [ -2.560583333, 55.648859 ] } },
{ "type": "Feature", "properties": { "id_site": 107, "nom": "Kirishima Open Air Museum", "pays_iso": "JP", "annee_ouve": 2000 }, "geometry": { "type": "Point", "coordinates": [ 130.7787222, 31.94030556 ] } },
{ "type": "Feature", "properties": { "id_site": 108, "nom": "La petite escalère", "pays_iso": "FR", "annee_ouve": 1970 }, "geometry": { "type": "Point", "coordinates": [ -1.273694444, 43.50880556 ] } },
{ "type": "Feature", "properties": { "id_site": 109, "nom": "Jardin de Rachanan", "pays_iso": "LB", "annee_ouve": 1965 }, "geometry": { "type": "Point", "coordinates": [ 35.67363889, 34.21394444 ] } },
{ "type": "Feature", "properties": { "id_site": 110, "nom": "Giardino di Pianamola", "pays_iso": "IT", "annee_ouve": 2010 }, "geometry": { "type": "Point", "coordinates": [ 12.20986111, 42.20091667 ] } },
{ "type": "Feature", "properties": { "id_site": 111, "nom": "Le parc d’Ar Milin", "pays_iso": "FR", "annee_ouve": 2003 }, "geometry": { "type": "Point", "coordinates": [ -1.400027778, 48.10872222 ] } },
{ "type": "Feature", "properties": { "id_site": 112, "nom": "The little Sparta Trust", "pays_iso": "GB", "annee_ouve": 1966 }, "geometry": { "type": "Point", "coordinates": [ -3.511777778, 55.74436111 ] } },
{ "type": "Feature", "properties": { "id_site": 113, "nom": "île art malans", "pays_iso": "FR", "annee_ouve": 2011 }, "geometry": { "type": "Point", "coordinates": [ 5.589083333, 47.26808333 ] } },
{ "type": "Feature", "properties": { "id_site": 114, "nom": "Le Parc Monumental Teillé-Mouzeil de Lambert Sculptor", "pays_iso": "FR", "annee_ouve": 2009 }, "geometry": { "type": "Point", "coordinates": [ -1.294944444, 47.43980556 ] } },
{ "type": "Feature", "properties": { "id_site": 115, "nom": "Gibbs Farm", "pays_iso": "NZ", "annee_ouve": 1992 }, "geometry": { "type": "Point", "coordinates": [ 174.4498333, -36.51908333 ] } },
{ "type": "Feature", "properties": { "id_site": 116, "nom": "Valais Sculpture Park", "pays_iso": "CH", "annee_ouve": 2011 }, "geometry": { "type": "Point", "coordinates": [ 7.226305556, 46.09686111 ] } },
{ "type": "Feature", "properties": { "id_site": 117, "nom": "Parc de Sculptures Al Maaden", "pays_iso": "MA", "annee_ouve": 2013 }, "geometry": { "type": "Point", "coordinates": [ -7.938833333, 31.592 ] } },
{ "type": "Feature", "properties": { "id_site": 118, "nom": "Les vignobles de Montagnac", "pays_iso": "FR", "annee_ouve": 2009 }, "geometry": { "type": "Point", "coordinates": [ 3.484916667, 43.47783333 ] } },
{ "type": "Feature", "properties": { "id_site": 119, "nom": "Les Géants du Nideck", "pays_iso": "FR", "annee_ouve": 2003 }, "geometry": { "type": "Point", "coordinates": [ 7.346444444, 48.53766667 ] } },
{ "type": "Feature", "properties": { "id_site": 120, "nom": "Irwell Sculpture Trail", "pays_iso": "GB", "annee_ouve": 1987 }, "geometry": { "type": "Point", "coordinates": [ -2.200527778, 53.71622222 ] } },
{ "type": "Feature", "properties": { "id_site": 121, "nom": "Sculptures en liberté", "pays_iso": "FR", "annee_ouve": 2015 }, "geometry": { "type": "Point", "coordinates": [ 3.865232, 44.478188 ] } },
{ "type": "Feature", "properties": { "id_site": 122, "nom": "Godfrey Sculpture Park", "pays_iso": "CA", "annee_ouve": 2016 }, "geometry": { "type": "Point", "coordinates": [ -76.63341667, 44.57566667 ] } },
{ "type": "Feature", "properties": { "id_site": 123, "nom": "Haliburton Sculpture Forest", "pays_iso": "CA", "annee_ouve": 2001 }, "geometry": { "type": "Point", "coordinates": [ -78.524198, 45.052386 ] } },
{ "type": "Feature", "properties": { "id_site": 124, "nom": "Lines in the sand", "pays_iso": "AU", "annee_ouve": 2008 }, "geometry": { "type": "Point", "coordinates": [ 153.4031944, -27.49975 ] } },
{ "type": "Feature", "properties": { "id_site": 125, "nom": "nature art project", "pays_iso": "RO", "annee_ouve": 2012 }, "geometry": { "type": "Point", "coordinates": [ 25.90766667, 45.81744444 ] } },
{ "type": "Feature", "properties": { "id_site": 126, "nom": "Land Art Mongolia", "pays_iso": "MN", "annee_ouve": 2006 }, "geometry": { "type": "Point", "coordinates": [ 109.4237778, 46.25713889 ] } },
{ "type": "Feature", "properties": { "id_site": 127, "nom": "Oranki Art", "pays_iso": "FI", "annee_ouve": 2001 }, "geometry": { "type": "Point", "coordinates": [ 23.96566667, 66.77694444 ] } },
{ "type": "Feature", "properties": { "id_site": 128, "nom": "Paradise International Centre", "pays_iso": "IR", "annee_ouve": 1996 }, "geometry": { "type": "Point", "coordinates": [ 52.05163889, 35.84788889 ] } },
{ "type": "Feature", "properties": { "id_site": 129, "nom": "The Green Gallery", "pays_iso": "IL", "annee_ouve": 2008 }, "geometry": { "type": "Point", "coordinates": [ 34.81861111, 32.20572222 ] } },
{ "type": "Feature", "properties": { "id_site": 130, "nom": "Point of view", "pays_iso": "PT", "annee_ouve": 2016 }, "geometry": { "type": "Point", "coordinates": [ -9.38861, 38.78833 ] } },
{ "type": "Feature", "properties": { "id_site": 131, "nom": "Parque de las artes Marañon", "pays_iso": "AR", "annee_ouve": 2011 }, "geometry": { "type": "Point", "coordinates": [ -69.36417, -32.46611 ] } },
{ "type": "Feature", "properties": { "id_site": 135, "nom": "La Ligne de Partage des Eaux", "pays_iso": "FR", "annee_ouve": 2017 }, "geometry": { "type": "Point", "coordinates": [ 4.25472, 44.63639 ] } },
{ "type": "Feature", "properties": { "id_site": 136, "nom": "Le Chemin des Cinq Sens", "pays_iso": "FR", "annee_ouve": 2003 }, "geometry": { "type": "Point", "coordinates": [ 4.4419, 44.8679 ] } },
{ "type": "Feature", "properties": { "id_site": 137, "nom": "Arboretum Marcel Kroenlein", "pays_iso": "FR", "annee_ouve": 2003 }, "geometry": { "type": "Point", "coordinates": [ 7.08944, 44.09556 ] } },
{ "type": "Feature", "properties": { "id_site": 138, "nom": "Sentier Art 3", "pays_iso": "CA", "annee_ouve": 2007 }, "geometry": { "type": "Point", "coordinates": [ -74.085, 45.6225 ] } },
{ "type": "Feature", "properties": { "id_site": 139, "nom": "Frontier Zone", "pays_iso": "UA", "annee_ouve": 2013 }, "geometry": { "type": "Point", "coordinates": [ 35.1, 51.03222 ] } },
{ "type": "Feature", "properties": { "id_site": 140, "nom": "Landart Festiwal", "pays_iso": "PL", "annee_ouve": 2011 }, "geometry": { "type": "Point", "coordinates": [ 23.19833, 52.20278 ] } },
{ "type": "Feature", "properties": { "id_site": 141, "nom": "Les sculptures monumentales", "pays_iso": "FR", "annee_ouve": 2006 }, "geometry": { "type": "Point", "coordinates": [ 6.26361, 43.37944 ] } },
{ "type": "Feature", "properties": { "id_site": 142, "nom": "Domaine du Muy", "pays_iso": "FR", "annee_ouve": 2015 }, "geometry": { "type": "Point", "coordinates": [ 6.585014, 43.431804 ] } },
{ "type": "Feature", "properties": { "id_site": 143, "nom": "Landes Art", "pays_iso": "FR", "annee_ouve": 2017 }, "geometry": { "type": "Point", "coordinates": [ -0.76083, 44.35917 ] } },
{ "type": "Feature", "properties": { "id_site": 145, "nom": "Val del Arte", "pays_iso": "ES", "annee_ouve": 2012 }, "geometry": { "type": "Point", "coordinates": [ 6.4113, 37.5638 ] } },
{ "type": "Feature", "properties": { "id_site": 146, "nom": "El Forn de la Calç", "pays_iso": "ES", "annee_ouve": 2008 }, "geometry": { "type": "Point", "coordinates": [ 1.969377, 41.78844 ] } },
{ "type": "Feature", "properties": { "id_site": 148, "nom": "Echigo Tsumari Art Field", "pays_iso": "JP", "annee_ouve": 2000 }, "geometry": { "type": "Point", "coordinates": [ 138.615092, 37.131665 ] } },
{ "type": "Feature", "properties": { "id_site": 149, "nom": "Movimientos de Tierra", "pays_iso": "CL", "annee_ouve": 2015 }, "geometry": { "type": "Point", "coordinates": [ -71.506179, -32.774313 ] } },
{ "type": "Feature", "properties": { "id_site": 150, "nom": "Ibarolla en Garoza", "pays_iso": "ES", "annee_ouve": 2005 }, "geometry": { "type": "Point", "coordinates": [ -4.899466, 40.607984 ] } },
{ "type": "Feature", "properties": { "id_site": 151, "nom": "Oliver Ranch", "pays_iso": "US", "annee_ouve": 1985 }, "geometry": { "type": "Point", "coordinates": [ -122.904625, 38.728794 ] } },
{ "type": "Feature", "properties": { "id_site": 153, "nom": "Museo Atlantico", "pays_iso": "ES", "annee_ouve": 2016 }, "geometry": { "type": "Point", "coordinates": [ -13.80866, 28.857281 ] } },
{ "type": "Feature", "properties": { "id_site": 154, "nom": "Molinere Underwater Sculpture Park", "pays_iso": "GD", "annee_ouve": 2006 }, "geometry": { "type": "Point", "coordinates": [ -61.763473, 12.085775 ] } },
{ "type": "Feature", "properties": { "id_site": 155, "nom": "Centros de Arte, Cultura y Turismo", "pays_iso": "ES", "annee_ouve": 1964 }, "geometry": { "type": "Point", "coordinates": [ -13.425253, 29.16014 ] } }
]
}
